name,main_city,jurisdiction,population,latitude,longitude,ba_distance,feb_precip_mm,feb_rainy_days_rate,feb_very_rainy_days_rate,feb_p5_temp_c,feb_p50_temp_c,feb_p95_temp_c,feb_avg_wind_speed_ms,feb_p95_wind_speed_ms,feb_windy_days_rate,feb_very_windy_days_rate,feb_wind_gust_days_rate
Gran Buenos Aires,Buenos Aires,Ciudad Autónoma de Buenos Aires-Buenos Aires,16224751,-34.5843925,-58.3979664,5.21181500872479,2.81099215303764,0.20077572658443413,0.1523897216008424,8.495364671914514,17.666707747543512,26.362407229279498,3.4429551909174085,6.194919176172666,0.11128133712309593,0.012099582149032515,0.0013156581676173247
Gran Córdoba,Córdoba,Córdoba,1705741,-31.4166867,-64.1834193,643.3620208324105,1.925155499524382,0.14736471200020979,0.10902296597650524,6.306751458023348,16.387356682965255,24.455050802306562,2.011139284943606,3.986415990776947,0.0050364580849820585,0.0,0.0
Gran Rosario,Rosario,Santa Fe,1429292,-32.9593609,-60.6617024,276.07063225637285,2.73535587541237,0.17978212602857208,0.14277722271180984,8.34079393538901,18.48004550898783,27.042275092969682,2.7409736510937623,4.898745338827998,0.02345766203090845,0.00013314001117239451,0.0
Gran Mendoza,Mendoza,Mendoza,1056893,-32.8894155,-68.8446177,982.5309161109168,0.6115977777074822,0.09700270983599345,0.04406270788779693,-0.3193837396773191,10.869789154536367,20.305058495790036,1.2382144912878519,2.8042578540641068,0.003299825132236611,3.577536633557515e-05,0.0
Gran San Miguel de Tucumán,San Miguel de Tucumán,Tucumán,1052194,-26.8303703,-65.2038133,1078.769119231046,2.7114046927635913,0.16191142976379266,0.12952124895742212,7.943388586593864,17.503935325317947,24.60716036524194,0.9153588819540569,1.9262429625936313,1.0038494674578575e-05,0.0,0.0
Gran La Plata,La Plata,Buenos Aires,919154,-34.9206797,-57.9537638,55.67296358387516,2.736125189392138,0.20204943751895518,0.14968674049780464,8.68080680190286,17.40287249581493,25.899960949942674,3.821583555315504,6.908884348012842,0.17164611786227407,0.02408595141275908,0.00291393669250541
Gran Salta,Salta,Salta,671015,-24.7892946,-65.4103194,1280.5228676861327,2.0454657450187854,0.14801180354666438,0.11597523439671927,6.0768347139921906,14.235161784168755,19.840685259230085,0.8959907766800106,1.701692049914833,0.0,0.0,0.0
Mar del Plata,Mar del Plata,Buenos Aires,644234,-37.9976168,-57.5482079,383.4990250665968,2.566607597971773,0.22441596916042925,0.1574374408274596,6.952234002112951,14.304603517220707,22.771356402985006,4.353749035542504,7.872129108067758,0.2727894490714636,0.05680237618728287,0.01158911774644587
Gran San Juan,San Juan,San Juan,546613,-31.5370909,-68.5251802,1001.2864160579923,0.3561530985415594,0.0736015685409187,0.023376439141998998,3.666840741316297,14.82743009237065,24.135330760468474,1.41440177324465,3.1863856882006734,0.004809774374027572,1.7102299453631003e-05,0.0
Gran Santa Fe,Santa Fe,Santa Fe,530027,-31.6186951,-60.7019561,393.9745182415194,2.8265950058713605,0.17179412078224243,0.14153480287520542,9.00542134048091,19.354328265776548,27.64621763573905,2.8260482261313364,5.075533025263533,0.02910023807106026,0.0,0.0
Neuquén-Plottier-Cipolletti,Neuquén,Neuquén,500336,-38.9519679,-68.0591741,983.5175468949648,0.35072117850166745,0.10480794433382036,0.012379213263106656,4.909361063188864,15.169837165749678,26.478921400561028,3.363299647411678,6.861169170943031,0.1402172382199358,0.012259969810183851,0.0003946549786886312
Santiago del Estero-La Banda,Santiago del Estero,Santiago del Estero,449688,-27.7877148,-64.2595062,938.2622372716534,1.8790694279572322,0.12805152377500664,0.09695489724843101,11.771219958354278,22.419545281150217,31.100523350281907,2.5587049117820646,4.7571292869574195,0.019525728778386098,0.0,0.0
Gran Corrientes,Corrientes,Corrientes,427531,-27.5246619,-58.7662564,787.007190033058,3.675941504157691,0.18982489981614786,0.16787700671798828,11.48096874440764,22.316949887109846,29.611692750962305,3.0719481796560255,5.481916393672362,0.04890171780939136,0.000246439645974368,0.0
Gran Resistencia,Resistencia,Chaco,407618,-27.6048829,-59.1932003,780.8156654951244,3.5127437708077998,0.18271851173149425,0.16138493898453127,11.1758564293002,22.21468391090747,29.73500537996174,3.0448883195434284,5.401605044981976,0.04398175801113892,0.0002635035478687106,0.0
Gran Posadas,Posadas,Misiones,389070,-27.3664824,-55.894295,839.73492067125,5.09174157076851,0.23668569621925772,0.211222063204835,12.159204518712624,22.419336819142753,28.797040897108964,2.769603293355701,4.956531319958979,0.033161045348503324,0.000359803900268407,0.0
Gran San Salvador de Jujuy,San Salvador de Jujuy,Jujuy,375794,-24.1852569,-65.2994789,1333.450521501109,2.3102824408854308,0.1672733516619828,0.13188337642444076,5.236959017141174,12.525270784095502,17.561938332595638,0.8068741725648547,1.7818590553248665,0.000554193757891089,3.574466435154332e-05,0.0
Gran Bahía Blanca,Bahía Blanca,Buenos Aires,323357,-38.7176522,-62.2654871,569.1575345302076,1.754725950537181,0.226690954916273,0.12213987893904814,5.534865256099512,15.103898050681137,25.801951303306392,3.9846255517309492,7.256892961391949,0.21338877023241984,0.01396362295610216,0.00044055087126438676
Gran Paraná,Paraná,Entre Ríos,302614,-31.7420505,-60.5321547,373.9149331282966,2.878028291613481,0.1739361650267482,0.14315118565019566,8.99027933057197,19.276091598703978,27.559521642856463,2.8264358815454598,5.068104583531553,0.028287158837898688,0.0,0.0
Formosa,Formosa,Formosa,260325,-26.1852983,-58.1744976,935.1321648127295,3.726541274803732,0.1966703718118744,0.17586231117688733,12.083129269539292,23.477963488336187,30.487820135861426,3.2161853790791413,5.89149317968231,0.07834902362969019,0.0012830768911098877,0.0
Gran San Fernando del Valle de Catamarca,San Fernando del Valle de Catamarca,Catamarca,230366,-28.4688806,-65.7790642,974.4248983741006,1.5376432021483617,0.11627838216952864,0.08444971186167768,6.812495292900139,16.9078651701727,24.462590341694533,1.310189732787651,2.4359497147872875,0.00018091939325057997,0.0,0.0
Gran San Luis,San Luis,San Luis,225536,-33.3020736,-66.3369577,744.2779953825237,1.5702660686882866,0.14869553522251847,0.10122459179925701,6.9192819168714905,17.594559638000774,27.582897126365836,3.155637257709413,6.305199231043356,0.12327431738312888,0.009674999149313822,0.00023556399387063322
La Rioja,La Rioja,La Rioja,208638,-29.4127411,-66.8558795,981.973795523545,0.9164259236454371,0.09880384726085494,0.06136085456875218,6.323152899309852,16.893385482699273,25.37321021687956,1.2473173363897647,2.337977346490995,0.0006159698119299377,1.1026486629844449e-05,0.0
Comodoro Rivadavia,Comodoro Rivadavia,Chubut,199369,-45.8632024,-67.4752615,1464.2903423012438,0.5246273583872785,0.1616282581811497,0.018604934550371464,3.6369499352552697,12.005662249427202,20.687181344139116,5.075926391863386,9.632352219391402,0.4200982775829857,0.1322123315955374,0.014463975146543673
Gran Río Cuarto,Río Cuarto,Córdoba,189960,-33.1237585,-64.3489782,571.3179744652892,2.1337587630809565,0.18394911958165722,0.1295609174409551,6.287940467393418,16.451185158192462,25.20453656297299,2.4850435687443624,4.872455753238591,0.023947319922430165,0.00036153319962277684,0.0
Concordia,Concordia,Entre Ríos,175683,-31.3401914,-58.0263642,365.49435079893664,3.6660883105730018,0.1999104834610449,0.17355808253346428,8.876977385967537,19.39670908918374,27.503462731710567,3.1536046744312314,5.639666045200034,0.05880950109701421,0.000708933582165388,0.0
Gran San Nicolás de los Arroyos,San Nicolás de los Arroyos,Buenos Aires,160350,-33.3277089,-60.2165909,217.87369666620674,2.81337622045328,0.1862008077605807,0.14983187566007794,8.265249237003742,18.27139883285361,27.055794830653515,2.7712459417309794,4.919081201629941,0.025152402584356526,0.00020388051427357057,0.0
San Rafael,San Rafael,Mendoza,139191,-34.6126025,-68.330514,906.8827806993157,0.8052070873871416,0.13010370595554516,0.056900394026310724,4.083551494216075,14.762531296699596,25.565789367110344,2.064041771063678,4.194020539601401,0.012545237897077633,0.00018134596649036603,0.0
Tandil,Tandil,Buenos Aires,138549,-37.3282887,-59.1356957,307.29398195141715,2.4830491903371166,0.21968494721939616,0.15177701044265846,5.096872404074665,14.120924224110297,23.912073071378714,3.339101836834502,5.948571136492487,0.08415309925525562,0.004808276202190897,5.927605755731534e-05
San Carlos de Bariloche,San Carlos de Bariloche,Río Negro,134978,-41.1334781,-71.3101474,1341.5044722751709,3.1815390093165297,0.18987596190927528,0.15530171522513422,-1.1435976116043176,5.579418666635035,15.618886242674844,2.0059445648861485,3.7101823864285506,0.003787736261622299,0.0,0.0
Gran Santa Rosa,Gran Santa Rosa,La Pampa,132887,-36.6221852,-64.29236,574.9617076064068,1.8576297189712119,0.22268306501101656,0.12281309718221485,6.004935053748076,15.855461846223854,26.31896364603759,2.6974711828583797,4.874982507453022,0.01761741191493735,0.0004071066062831805,0.0
Villa Mercedes,Villa Mercedes,San Luis,132076,-33.6866361,-65.4954266,658.7974438779919,1.7935069515666016,0.1753145733854695,0.11599796168203523,6.4385349435319625,16.72902541495022,26.358039592758526,2.756920424932416,5.217000257605708,0.03852379993884477,0.0012477149286925764,3.196625023923129e-05
Villa María-Villa Nueva,Villa María,Córdoba,121939,-32.4106245,-63.2435809,509.0470763642555,2.2923892622098574,0.1719861956387834,0.12869246091572856,7.878430314433728,18.19502585173459,26.760843653258902,2.5435873453158555,4.798050404123588,0.018607802069984997,6.314690535309144e-05,0.0
Río Gallegos,Río Gallegos,Santa Cruz,115524,-51.6215268,-69.2150374,2077.5255017438676,,,,0.5056466180261517,8.06272348265358,15.467632637976182,5.677241126366159,10.847932193945173,0.4833514135835172,0.20008060706962064,0.05319958872645959
Zárate,Zárate,Buenos Aires,114905,-34.0954713,-59.0245097,79.12343028791035,2.8643991378287414,0.19736643833803183,0.15577195925078083,8.087816643854605,17.829853185827865,26.80133774068154,2.9250900137116442,5.2188869674620335,0.038569719438717974,0.0008748897968743685,0.0
Reconquista-Avellaneda,Reconquista,Santa Fe,111396,-29.1443478,-59.6437728,617.4913206118631,3.0921684002252223,0.180696751097221,0.15492576325169904,10.184475659464404,20.964526843753323,28.787636028571395,3.0020876988108847,5.300574761642164,0.039321968949320926,2.1601904782271585e-05,0.0
San Martín-La Colonia,San Martín,Mendoza,105497,-33.0805336,-68.4710695,943.6005764518416,0.6067002054913624,0.09026321596014275,0.04400636641381529,5.290014425009126,16.3201425723974,26.782549202145372,1.8532243913042339,4.117465759006287,0.02276003392924298,0.0002885068855587965,0.0
Trelew,Trelew,Chubut,104657,-43.2531242,-65.3094407,1127.7635224331905,0.4994448766157936,0.15643719591347735,0.017331226371326672,4.8969336154346506,14.414716492347798,24.80539051422093,4.15526322298177,7.712407378724456,0.24855134087016237,0.02919940561153633,0.0007877117924819457
Campana,Campana,Buenos Aires,104235,-34.1636631,-58.9586837,69.45136593805705,2.845098965654011,0.19786891914388108,0.15500839299669933,8.073706976619604,17.796240967535383,26.76227343159087,2.9462275394050823,5.2595002189113345,0.040284313243266874,0.0009738982161594965,0.0
Olavarría,Olavarría,Buenos Aires,102907,-36.8938752,-60.3231676,304.70396636636553,2.5500873364130303,0.2208455925005961,0.15098791807504813,5.355483991311486,14.816972854278385,24.771360896210332,3.2001911316875633,5.624454468664327,0.059481391936391126,0.0017718154152901982,0.0
General Roca,General Roca,Río Negro,102750,-39.0268342,-67.5754674,950.0571256533658,0.48742888792331324,0.14454880237758722,0.020142552129116892,5.06157435773612,15.350537719467052,26.48496386626185,3.5147447362234514,6.944367588405528,0.14822290401053223,0.013409121974732095,0.00043999926003044157
Pergamino,Pergamino,Buenos Aires,102182,-33.897495,-60.575046,212.38154772688063,2.7719013844889244,0.19227535612071503,0.15044547915232964,7.532459344194367,17.495025364399936,26.33682646379787,3.0462821756180314,5.366776271802242,0.04382919802915506,0.0004378354856744691,0.0
Rafaela,Rafaela,Santa Fe,101470,-31.2526923,-61.4916758,469.8209817152194,2.664905871985917,0.16274703841782923,0.1361818705607285,8.696911881856158,19.339143848934416,27.593142303482686,2.9806423490356266,5.32612904424468,0.04155004827881021,7.34154775669743e-05,0.0
Luján,Luján,Buenos Aires,100541,-34.5661734,-59.1152598,62.35933637273167,2.951231542386115,0.19951828215976955,0.1562941112829111,7.692135607753024,17.415643225357787,26.456900903504582,2.9880141217855525,5.3218896227490955,0.04127080910921416,0.0008788174121332567,0.0
Gualeguaychú-Pueblo General Belgrano,Gualeguaychú,Entre Ríos,98174,-33.0078908,-58.5109859,178.65674944993918,3.0572847487427706,0.1978560228033737,0.16140567083743262,8.292868999483803,18.451629186445462,27.059775947121516,2.978323808868941,5.35103143435662,0.04152482290159294,0.0005311773358419327,0.0
Puerto Madryn,Puerto Madryn,Chubut,97625,-42.7673414,-65.0365942,1070.6446782256533,0.5056494976765593,0.15883269901514555,0.017755363669014545,5.137198005826344,14.560309137917026,24.77377981306409,4.213529055097088,7.76771345672866,0.25750374425689715,0.030805255264988108,0.0013978518468336968
Río Grande,Río Grande,Tierra del Fuego,97611,-53.7858275,-67.7018562,2250.4435334825425,,,,0.9875172671263448,6.7546131388673025,11.931752074986871,6.794826755894583,11.600041814485257,0.6381600494834608,0.3373706992798432,0.11222227036801082
Presidencia Roque Sáenz Peña,Presidencia Roque Sáenz Peña,Chaco,96866,-26.7909093,-60.4410391,888.5808834831008,2.713172258848605,0.15859975796068368,0.1336133049998887,11.124773744126479,22.695256772442235,30.81671193364564,2.910981377821481,5.135289610301054,0.030567190812861973,0.0001280215224073904,0.0
Junín,Junín,Buenos Aires,95385,-34.5934412,-60.9461678,230.03743592316673,2.764247978172103,0.19550519479189638,0.1480122791199855,7.222425187290616,17.13767772179173,25.986987233087845,3.0676901153416916,5.390997132536973,0.04394788442029814,0.0003029183678583999,0.0
Necochea-Quequén,Necochea,Buenos Aires,94057,-38.5545494,-58.7392624,437.72894965796723,2.4398816078122345,0.23151756584604824,0.15888854907440386,6.575729343829602,14.216408204796581,23.63056110677056,4.047453488622547,7.2580856227259005,0.21913007965277118,0.02556157173726406,0.003362198217403747
Goya,Goya,Corrientes,88949,-29.1444046,-59.2649825,611.8894684454916,3.1472919468920986,0.18625026219852417,0.159884392179923,10.283817854429644,20.98994080790688,28.708588543132144,3.028790378358273,5.371599955956663,0.04331345673743547,0.00023331009857351667,0.0
San Ramón de la Nueva Orán,San Ramón de la Nueva Orán,Salta,88867,-23.1286284,-64.3214309,1395.9580228732484,2.273724662897959,0.19043872478768858,0.13782490506347136,10.625838468789258,19.886396311374398,26.26399970120584,0.8254538085339428,1.771076929525795,0.0,0.0,0.0
Tartagal,Tartagal,Salta,88095,-22.5194493,-63.7986328,1439.0634564373051,2.6024337896728236,0.1928440545101534,0.1448723818318086,12.229132632399232,22.166906175039095,29.04217255888935,1.258667418442392,2.748060535342874,0.00033192242747514064,0.0,0.0
Concepción del Uruguay,Concepción del Uruguay,Entre Ríos,85560,-32.0270976,-60.5620134,348.74498734593476,2.8651287258576037,0.17450889088737284,0.14228791636740262,8.909184517930337,19.13537417110177,27.46594449968284,2.8293797721452663,5.061726898318152,0.028195091816722126,0.0,0.0
Tafí Viejo,Tafí Viejo,Tucumán,85043,-26.7343146,-65.259223,1090.643530699535,2.7230357894119126,0.16353197662580615,0.13133312258968702,7.259166733833544,16.68071772969419,23.557435120889064,0.8964927891107555,1.8756154619131014,1.6266202616551778e-06,0.0,0.0
Villa Carlos Paz-San Antonio de Arredondo-Villa Río Icho Cruz,Villa Carlos Paz,Córdoba,83438,-31.4183774,-64.4936985,667.611284236362,1.677728660078751,0.13552978228440515,0.09852280248277627,5.470095380766704,15.543817731843436,23.43723966576973,1.8422522532536643,3.7414823278892486,0.0026834796489328748,0.0,0.0
Viedma-Carmen de Patagones,Viedma,Río Negro,83326,-40.8084274,-62.994722,795.6775154103852,1.0339033078176871,0.20430764594919948,0.0653196494505178,5.472172128267967,14.289465823050408,24.616398583231344,3.6364669760758153,6.4943393414205355,0.1466680204364892,0.007164799609873472,0.0005060958524221985
Mar de Ajó-Santa Teresita-Mar del Tuyú,Mar de Ajó,Buenos Aires,83016,-36.7212921,-56.6776091,282.65472545576233,2.660570894866153,0.21318458300262802,0.15849091926327666,8.406025645834553,15.812727560193562,23.553611351578017,4.94876892168766,8.71048471112633,0.3866975704620576,0.09606352122067388,0.016768026559055727
Venado Tuerto,Venado Tuerto,Santa Fe,81966,-33.7456906,-61.9690915,339.52930749500575,2.53172712302605,0.18707430533638728,0.14461233179296554,7.5633841193254225,17.584483686288923,26.349358442028567,3.103831519803014,5.5208321805491485,0.0517381665753738,0.00037177092751346854,0.0
San Francisco-Frontera,San Francisco,Córdoba,79689,-31.4249815,-62.0840299,491.22322149852016,2.483728523885479,0.15879106384956923,0.13129947169026576,8.809777607636908,19.282146308304025,27.576327298336885,2.9472992542703227,5.271068134930818,0.03908390977903198,0.00024471350903466145,0.0
Ushuaia,Ushuaia,Tierra del Fuego,79409,-54.807306,-68.3084133,2370.5732694770727,,,,-2.9834279686110126,3.5078215720595267,9.567720974626233,2.746768014784143,4.802378553955998,0.057385338721970464,0.002816128032063002,1.622853442205798e-05
San Pedro-La Esperanza,San Pedro,Jujuy,77116,-24.2689397,-65.2208582,1321.5050558183398,2.251416674105497,0.1653454985205585,0.12931967014897822,6.146054762069062,13.883934982055953,19.201891882912314,0.7226553979846698,1.5263553732767652,4.616877852246588e-05,3.027460886719074e-06,0.0
Oberá,Oberá,Misiones,75456,-27.4849798,-55.1202965,851.687270182531,5.307381896461713,0.2559361296286731,0.22773565595187933,11.310693360757957,21.69736920377267,27.751452711183855,2.199538459675182,3.9000021583452416,0.000955251780585213,0.0,0.0
Eldorado,Eldorado,Misiones,68722,-26.4048555,-54.6262079,980.9999685136673,5.269274503254106,0.27356495190888336,0.23973189009334558,12.028903956940697,22.0449740398561,27.46899136694533,2.033371251357639,3.62441004000234,0.00034276630156423234,0.0,0.0
Mercedes,Mercedes,Buenos Aires,67252,-34.6506717,-59.4317202,91.15937969436781,3.054234368585946,0.19980077749961184,0.15910638413319006,7.496257608036331,17.23666901819302,26.31040849333456,3.0093782695115525,5.3426636848663565,0.041468216998514836,0.0007347541076493426,0.0
General Pico,General Pico,La Pampa,66805,-35.6591085,-63.7576103,498.28001885556966,2.1588883702208705,0.2127639426072676,0.13197322455967755,6.592760582504604,16.455367149412577,26.342300944133335,2.7963869377987014,5.10105247690589,0.027453812929824274,0.00024518157020033885,0.0
Chivilcoy,Chivilcoy,Buenos Aires,65575,-34.8969591,-60.0190499,148.00732525615427,2.9927971749732314,0.2022870897598789,0.1579083388836487,7.168048406846294,16.96739681859208,26.0604790681217,3.0539877764964323,5.3857261412612525,0.0433312484281911,0.0006770973350793059,0.0
Azul,Azul,Buenos Aires,64886,-36.777492,-59.863442,272.15791799327275,2.658480160447701,0.21606374529618427,0.15317103590790512,5.558103136260472,14.947209846034315,24.802327675870156,3.1502182381865094,5.563570290651126,0.054435287471821414,0.0020875841651463375,0.0
Concepción-Arcadia-Alto Verde ,Concepción,Tucumán,64844,-27.3459249,-65.5927221,1056.1816600932916,2.6420231835962418,0.1536885509758978,0.12253964737130174,6.846509353432329,16.357218349187583,23.24927311872301,0.7796179078944053,1.624271703097235,0.0,0.0,0.0
Punta Alta ,Punta Alta ,Buenos Aires,64244,-38.8804693,-62.0744033,573.6732695003923,1.7120526703371113,0.2263259071892951,0.1195806072305685,5.906955413145476,15.163992314861694,25.59034241016619,4.0992267026228655,7.3896405122775635,0.23713498909532335,0.01739373083966011,0.0007269998765508304
Jesús María-Colonia Caroya-Sinsacate,Jesús María,Córdoba,63080,-30.9764132,-64.0957082,666.0113939163977,1.8604104038171796,0.1401016330153057,0.10559839983207253,7.037841498106916,17.274965344919444,25.470418275655927,2.3288761411868104,4.54533480912027,0.016491292309957887,5.7071410762630415e-05,0.0
Alta Gracia,Alta Gracia,Córdoba,60162,-31.6578916,-64.4338563,648.4241520418527,1.742587528115494,0.1421943077058665,0.10252714268810752,5.466340883917922,15.490856060912812,23.43110817140777,1.7507121892803157,3.570717938723745,0.0019318783467801278,0.0,0.0
Perico,Perico,Jujuy,56629,-24.3761853,-65.1181555,1306.1120552994569,2.131509649671966,0.16140262304879469,0.12457195251384146,7.362169734420259,15.685861576650774,21.396152643887007,0.7000144559669486,1.3934802632301453,0.0,0.0,0.0
Clorinda,Clorinda,Formosa,56528,-25.2900303,-57.7125898,1036.331262061811,3.672276132397952,0.2094028771410306,0.18263386097138637,12.678650495268586,24.01958838054544,30.390742818954447,3.113255412573427,5.714617893766819,0.06563370166554941,0.0008611819008046366,0.0
San Pedro,San Pedro,Buenos Aires,56471,-33.6760716,-59.6629342,153.81210874050703,2.95322297062784,0.19169433395936342,0.1566572337552284,8.156324624729294,18.024645210456317,26.977489825854608,2.793096872407506,4.943677950413499,0.02687015269727674,0.00021764244408327017,0.0
Caleta Olivia,Caleta Olivia,Santa Cruz,56310,-46.442117,-67.5175069,1519.441728874588,0.6280288199722592,0.1716326168870156,0.029439027705024854,4.103940330420632,12.381843116126383,20.555426518137093,5.229231102920405,9.953151647691238,0.43934760780166526,0.15561212724783727,0.023954289372482306
Cutral Có-Plaza Huincul,Cutral Có,Neuquén,56225,-38.9378831,-69.2293743,1075.0314416499684,0.3153313856325011,0.09680600391579432,0.009605610650656059,2.499063932701022,13.095369993582116,24.424017115101208,2.9558980450091434,6.562972710442259,0.10572881057844134,0.011936088026487757,0.000481205226894114
Puerto Iguazú,Puerto Iguazú,Misiones,53786,-25.6107508,-54.5764199,1065.2832891491446,4.997544885450198,0.2709148096214532,0.2305074756991886,13.173471292030207,23.007523885955486,28.149703121639718,2.199539373640161,3.9391472493377133,0.001427997832703195,0.0,0.0
Río Tercero,Río Tercero,Córdoba,52977,-32.1767655,-64.1129881,593.1416852786401,2.033980278465446,0.16549616862456215,0.11913697180030412,6.692030414450242,16.79493914071723,25.090301028609524,2.102583911315127,4.223569087412352,0.010456803077999302,3.1269674711437574e-05,0.0
Cosquín-Santa María de Punilla-Bialet Massé,Cosquín,Córdoba,52321,-31.2436548,-64.4657395,676.3766685220783,1.704024821935259,0.13496709852426975,0.09890890564540068,5.885281444053576,16.034361761973113,23.99664302222052,1.994437455553209,3.959913905182851,0.004694179604253197,0.0,0.0
Villa Constitución,Villa Constitución,Santa Fe,52204,-33.227206,-60.3298225,233.16558202562578,2.789298027103526,0.18460811720245907,0.14785383229646706,8.302510743117406,18.348197529932342,27.058382164331487,2.7554273550972703,4.898252305636696,0.024306286560048417,0.0001858427232449582,0.0
Tres Arroyos,Tres Arroyos,Buenos Aires,52199,-38.3770014,-60.2755685,448.46096127040653,2.0795819654656924,0.23427161096758928,0.14298871890572076,5.234531486470558,14.207468165457989,24.778700740671272,3.654675934810734,6.563571143475154,0.15190230645316288,0.005787567382608365,7.304558381164806e-05
Paso de los Libres,Paso de los Libres,Corrientes,51442,-29.7136574,-57.0861369,558.5189190834257,3.956245453464761,0.21552280042522506,0.1856393324303779,10.192726117567812,20.892312655300593,28.306340690161907,3.1845778955398627,5.534330672611983,0.0538278484369775,0.00042246578185717743,0.0
Villa Dolores-Villa Sarmiento-San Pedro-Villa de las Rosas,Villa Dolores,Córdoba,50688,-31.9449632,-65.1902298,695.0996047735266,1.6632637454963333,0.1342866666568986,0.09805680206489413,7.169015041975015,18.231566695696525,27.058027298746463,1.2198973248833425,2.9487476926625718,0.0016491785015134229,2.803414222112827e-07,0.0
Libertador General San Martín,Libertador General San Martín,Jujuy,47209,-23.8093358,-64.7921741,1347.066859298163,2.2836787980454685,0.17430131845043995,0.13223573117671314,7.128821448868601,15.226560807702086,20.735135901300964,0.7774698097570499,1.633546706416186,0.0,0.0,0.0
Villa Angela,Villa Angela,Chaco,46850,-27.5768225,-60.7112067,810.0887110307195,2.8528552657474173,0.15708390929168822,0.13455015553418012,10.823725326436463,22.30814273966788,30.556508993281238,3.149470806508746,5.53070471762919,0.05067201562409166,0.00031106669305130735,0.0
Chacabuco,Chacabuco,Buenos Aires,46440,-34.6297043,-60.470185,186.33010488715203,2.8723443595938205,0.19919877058031185,0.1530729847317141,7.236952284012524,17.124442440381166,26.052084279760706,3.0699183709448175,5.398368751130246,0.044604477035282274,0.0004563973308060145,0.0
Esperanza,Esperanza,Santa Fe,45433,-31.448994,-60.9304048,421.4781653218985,2.7659348956100183,0.1690015831829795,0.14000852365930816,8.868603602427294,19.381363491627972,27.66451610965435,2.8639791925658313,5.15194603348853,0.033081745453026154,0.0,0.0
Aguilares-Los Sarmiento-Barrio Santa Emilia ,Aguilares,Tucumán,44660,-27.4314798,-65.6146633,1050.139376107908,2.489497848809689,0.14919358026747132,0.11813955760397019,6.89774616123988,16.449797294456783,23.402024748308346,0.7807415302681022,1.628232841388525,0.0,0.0,0.0
Balcarce,Balcarce,Buenos Aires,44409,-37.8464435,-58.2555452,358.6771174896127,2.488813564789623,0.2246600155685902,0.1557796076668384,5.4186143096438295,13.985451195211423,23.59981934210057,3.5169340508693714,6.291876857502181,0.11655203105291839,0.006928527062037694,0.0003843887390091191
Gualeguay,Gualeguay,Entre Ríos,43909,-31.7404073,-60.4849515,371.7932959955011,2.8917499529576984,0.17433692965947697,0.14374621871564286,8.980932800954385,19.268466242836496,27.548537470359694,2.830242907490554,5.073937882954056,0.028458170422308214,0.0,0.0
Termas de Río Hondo,Termas de Río Hondo,Santiago del Estero,42761,-27.4959255,-64.8640783,999.233678140805,2.190081311173468,0.13671365997886864,0.10595998947755389,11.154323935948636,21.55575749806954,29.69322274996153,1.495107496644404,3.1204754310194915,0.004154359851281852,0.0,0.0
Mercedes,Mercedes,Corrientes,42115,-29.1835645,-58.0799951,603.4894283463481,3.7230575473468703,0.2052090560220387,0.18118997922734906,10.220849023644451,21.026474619300416,28.541313367991407,3.177338238326717,5.596970583314366,0.05638013113722837,0.0007792409402560705,0.0
Nueve de Julio,Nueve de Julio,Buenos Aires,42098,-35.4444766,-60.8841726,241.30471109104056,2.8032643876312253,0.2061112655882739,0.1507226660387114,6.766781423314878,16.474771212474902,25.784461922369797,3.1008544322548053,5.417411833478221,0.04491191593349979,0.000519592087445504,0.0
Cañuelas,Cañuelas,Buenos Aires,41801,-35.0592386,-58.7544268,56.90322363909125,2.865429385636485,0.20252452751582073,0.15451377508702047,7.420943995927814,17.011560100848545,26.135091176850093,3.045553959785375,5.427475424335184,0.04573886493902804,0.0013685667009941992,6.76804659014984e-06
Centenario,Centenario,Neuquén,41801,-38.8301384,-68.1215201,982.4847507469892,0.32668892653269804,0.09508827125474206,0.011822015461061035,4.966827154215111,15.215155914799558,26.562658408295466,3.315511746382647,6.825714647834816,0.1354044692904425,0.011851919901376486,0.0003801587170696611
Curuzú Cuatiá,Curuzú Cuatiá,Corrientes,40925,-29.7913375,-58.0498307,536.4208004961484,3.6798265483765724,0.204341224140564,0.17790429247471914,9.719178143700011,20.471901769481146,28.028828349592295,3.1016777702593297,5.464323514264846,0.048236686509446014,0.0003956832983321444,0.0
Río Segundo-Pilar,Río Segundo,Córdoba,40626,-31.4534384,-63.1656553,563.9186021080322,2.1825559091327986,0.15464933266556094,0.11946994564555778,8.673146790305491,19.049910471682367,27.551545062415403,2.675657756820235,5.029374698068047,0.027967972745458782,0.0001266735263222071,0.0
Zapala,Zapala,Neuquén,40508,-38.9006215,-70.0668573,1140.7823009432675,0.9169234093502571,0.18417672098450233,0.05464740599047209,0.07891842639619799,10.170178972296704,21.02187003955447,2.8588495965540077,6.561182453044408,0.10067789495276008,0.010909672588063338,0.0004674515592369871
La Falda-Huerta Grande-Valle Hermoso,La Falda,Córdoba,40310,-31.0946192,-64.4829365,687.3534749061214,1.7119918632074382,0.13326419564835165,0.0987678291513323,6.459823661842491,16.732220776048077,24.809659764872862,2.141110420178859,4.15436466893941,0.007511833564607134,4.257443643508917e-07,0.0
Trenque Lauquen,Trenque Lauquen,Buenos Aires,39975,-35.9731074,-62.7328794,418.5322099614484,2.1640326704023214,0.21701956373053413,0.1346988669514119,6.448768291515153,16.198801258645762,26.257708475704213,3.059777122570356,5.479512480831805,0.04911918243418136,0.00041302797500969316,0.0
Chascomús,Chascomús,Buenos Aires,39947,-35.5786869,-58.0138252,113.44956571315379,2.7628157820722388,0.2070132454604531,0.1548287589693815,7.192380075755672,16.536851915070958,25.563885375964507,3.0985327926876374,5.567148894276303,0.053709131330822,0.0020838747979281093,0.0
Villaguay,Villaguay,Entre Ríos,39406,-32.028558,-60.5625995,348.6416254473408,2.8648431942053407,0.17451238570385152,0.1422816250760187,8.909365645584872,19.134994146384486,27.466191038642908,2.8292482630067615,5.061407236106672,0.028183853392491146,0.0,0.0
Chajarí,Chajarí,Entre Ríos,39392,-30.7603828,-57.9852672,429.8480910803295,3.5900733710394506,0.20043553783091136,0.17287777393682027,9.250193065700682,19.897110285631275,27.854549877422674,3.2661422325151794,5.8376876798676305,0.06985283657271363,0.0014228244862097774,0.0
Chilecito,Chilecito,La Rioja,39327,-29.165001,-67.4953596,1047.8907693228398,0.9588627734624738,0.10227182511474403,0.06214884472013012,4.010723723415388,13.55544929147396,20.39243155941291,1.1315923494444435,2.063152159672646,4.978199813685462e-06,0.0,0.0
Pinamar-Divisadero,Pinamar,Buenos Aires,39301,-37.1099492,-56.8539007,311.3767940480517,2.6736039417305895,0.21683696824743567,0.1594770962687888,7.733488741321932,15.334880914221378,23.438213776149656,4.41892470715788,7.899491864826198,0.2870021637405168,0.06466260382145729,0.011598969712640819
Bragado,Bragado,Buenos Aires,38794,-35.1155766,-60.489771,195.54100046099674,2.8546771355849403,0.20374557087834952,0.15273450239810915,6.991035299799075,16.793135330077387,25.92216274180723,3.0678368224796597,5.374724178322944,0.04263100860246046,0.0005886697995697282,0.0
Casilda,Casilda,Santa Fe,38415,-33.0443368,-61.1641779,306.75730729005465,2.666863754896901,0.17792865057761081,0.14137028458558218,7.957624026517882,18.191498276023054,26.718632887824114,2.8630003476700914,5.114186604799951,0.03096679394992146,0.00030035929510882625,0.0
Tunuyán,Tunuyán,Mendoza,38367,-33.5812925,-69.0154258,982.300908389698,0.697824860560069,0.10816042294409285,0.049279513391793824,-3.654105874019721,7.49315896448532,17.64319153412752,1.1626530948449691,2.4672814314693867,0.0006105861765108786,0.0,0.0
General Güemes,General Güemes,Salta,38048,-24.8076741,-64.9167382,1254.3554571573352,1.9188625456385626,0.15016829229557957,0.11494728840675847,9.06812727048177,18.411755225925504,24.918181028290906,0.9368483326921335,1.8136091580974878,0.0,0.0,0.0
Bell Ville,Bell Ville,Córdoba,37302,-32.6300707,-62.6888782,451.76177171644923,2.405261892539972,0.1730376634922805,0.13293323059364706,7.943918555303272,18.25950098926303,26.92162742843134,2.586137168481078,4.747731382259794,0.017226395853590728,0.0,0.0
Villa Gesell,Villa Gesell,Buenos Aires,37295,-37.2556627,-56.9679411,321.3845011285692,2.676850366285372,0.2172967777545799,0.15933778526103923,7.485307184037255,15.1530263775038,23.41466149473598,4.238394727023,7.636932766330561,0.25344771197117055,0.05305686208678501,0.009664881317614966
San Martín de los Andes,San Martín de los Andes,Neuquén,37108,-40.1568791,-71.3525588,1296.563689261078,3.4668843490308516,0.1809307641180608,0.1590001814800415,-0.7506187103303781,6.4862067332606275,16.119140083798275,1.9984647761358745,3.781028556973652,0.00539094704496236,0.0,0.0
Esquel,Esquel,Chubut,36624,-42.9173055,-71.3216508,1447.0989350361076,2.0900562629526007,0.21205412280869015,0.12643698477085846,-1.1194760242478539,5.956767643542511,16.05422356589257,1.8679745761992361,3.2816354283785047,0.0010789836364037042,0.0,0.0
Pehuajó,Pehuajó,Buenos Aires,36507,-35.8104933,-61.899055,341.7411609675121,2.464041927821387,0.21434085676921275,0.14257507663982882,6.625923839348884,16.258739226965147,25.985079114893594,3.0796257526520554,5.4315373952343675,0.045301069293429676,0.000398299905983478,0.0
Lobos,Lobos,Buenos Aires,35719,-35.1856322,-59.0978393,87.21467878650607,2.937427137198556,0.2023083492462573,0.1561888254787214,7.252459085850263,16.855652602632563,26.04899209992667,3.0141310372138954,5.363001712415106,0.041534033998768566,0.0010260118113308994,0.0
General Alvear,General Alvear,Mendoza,35626,-34.9776218,-67.6963461,847.8603293803557,0.8438076765808781,0.14599798204779948,0.058323213040278446,6.778927621376549,17.3665047520609,29.204686622197382,2.8478313578177605,5.746382672747906,0.07737915057455501,0.004302906900151405,0.0001229479260754292
Bella Vista,Bella Vista,Corrientes,35546,-28.5073653,-59.0452284,679.924199229243,3.168821472063346,0.18553985094205122,0.1589715065269125,10.810171687595439,21.628500455329828,29.184518482250354,3.1209285611982103,5.552925048299085,0.05338091698729158,0.00044486708639384395,0.0
Baradero,Baradero,Buenos Aires,35389,-33.8120471,-59.5051759,132.83827010491217,2.9595357323263314,0.19373193419298312,0.15756154984061838,8.07527980673566,17.934942221348198,26.90556121928101,2.823619017911991,5.0070968468702235,0.029508516573294372,0.0003296871488197586,0.0
Gobernador Virasoro,Gobernador Virasoro,Corrientes,35150,-28.0529003,-56.0183999,763.3341268394273,4.905457628908302,0.23339009732056448,0.2071216638594537,11.665344292682603,22.0913679559641,28.810257198975908,2.785878896114239,5.00371263011484,0.02792833780849466,0.00019943177285641523,0.0
Miramar-El Marquesado,Miramar,Buenos Aires,35037,-38.2704349,-57.8387997,408.9079398051505,2.4931193545897745,0.22581779101747854,0.15586113678590544,7.072124082451122,14.19843951004834,22.657698933189675,4.536248352046668,8.17867558471858,0.30699803551873633,0.0646526487218392,0.013127328856659425
Victoria,Victoria,Entre Ríos,34965,-32.874961,-60.3387305,261.4468146146496,2.7786799854488113,0.18101371926964,0.14468865717109058,8.558896643629579,18.65320884684881,27.241084717421998,2.7233320632765743,4.840624304842944,0.0217419260505526,4.134013050163612e-05,0.0
Rivadavia,Rivadavia,Mendoza,34830,-33.1959388,-68.4662317,940.3243577427661,0.6230986161272742,0.0916244213465613,0.045095192302551976,5.250235456822435,16.318183667782687,26.833397957781404,1.889490707193348,4.168983241937338,0.022594697542918884,0.0002640649283178953,0.0
San José de Metán,San José de Metán,Salta,34601,-25.4266953,-64.6035303,1179.0285901510545,1.93156680201182,0.14571786562938951,0.11214944242309338,9.908843454904568,19.571356148679456,26.718168972745932,1.3402289976574981,2.681918446256991,0.0009328433525902663,0.0,0.0
Cruz del Eje,Cruz del Eje,Córdoba,34317,-30.7218737,-64.8086332,737.0660463499978,1.6785601942692512,0.12415687540946409,0.09246013917831271,9.597498384520245,20.382974247819515,29.103774461167255,2.6879700007723453,4.9571439198369465,0.030290506037995463,0.00011299689422407756,0.0
Salto,Salto,Buenos Aires,34034,-34.2917828,-60.2544888,170.74751080023992,2.867903459265094,0.19555586024223393,0.15326812485957164,7.3985963175060165,17.30905922602324,26.23503418290136,3.060599091428815,5.3927885878465736,0.04450273988574093,0.00037178774972738304,0.0
Frías,Frías,Santiago del Estero,33564,-28.6377023,-65.1288391,917.396338441441,1.6634941524561817,0.11336241794906071,0.08358582729539231,9.489430854987129,19.906612168598844,28.383913903317183,2.175655734389266,4.123295451614933,0.009468520606753524,0.0,0.0
General José de San Martín,General José de San Martín,Chaco,33225,-26.536411,-59.3414935,900.0534050248689,3.2321194053470768,0.17500091043575552,0.15478662254049794,11.43542917662155,22.834078724172006,30.340367070237733,3.050419786096663,5.505002924741928,0.05052108915766016,0.0006169408856575243,0.0
Famaillá,Famaillá,Tucumán,33095,-27.054364,-65.4020439,1070.2444993881054,2.9189838843182327,0.1635168902568236,0.1316766314650772,7.3697785876758255,16.869880971779047,23.80352849786572,0.8052285215223144,1.66941849161755,7.366736473861493e-08,0.0,0.0
Lincoln,Lincoln,Buenos Aires,32773,-34.8683517,-61.5296207,284.43018738747867,2.623426811044974,0.19858778569922925,0.14452530194650487,7.071139411534782,16.911509032390455,25.945005322374787,3.1028185841702784,5.475007902492074,0.048292282496997116,0.00026456640393046854,0.0
Coronel Suárez ,Coronel Suárez ,Buenos Aires,32525,-37.4585755,-61.9329038,445.53516211153016,2.1314299634680367,0.22670980553525213,0.1406179024703835,4.676023224910282,14.297730505106644,24.648233372347725,3.2265332182020514,5.751000982696749,0.06864801037220546,0.0018530060723687505,0.0
Caucete,Caucete,San Juan,32454,-31.427026,-67.6524147,930.2593814392899,0.552669242015124,0.07747869440262768,0.03868969554308505,6.380961925643071,17.595585549448415,27.291838500572357,1.7450184614844857,3.8275591251181353,0.010885470315854327,4.9903477472508505e-05,0.0
Cañada de Gómez,Cañada de Gómez,Santa Fe,31916,-32.8234448,-61.3905125,338.2998948723166,2.649899511928844,0.1734819294110457,0.13873803100005483,8.059371672286806,18.347559842010416,26.780797593680855,2.8876744698559818,5.165959329427007,0.03216606901488609,0.00023363719832109135,0.0
San Carlos de Bolívar,San Carlos de Bolívar,Buenos Aires,31618,-36.236364,-61.1069265,301.622846622868,2.5713253949079564,0.21588304032929195,0.14875027900311208,6.081940148674996,15.702851254519473,25.494625651763,3.11188620246885,5.4465102119052204,0.04675120973045629,0.0005265265601767699,0.0
Monteros,Monteros,Tucumán,31001,-27.1653249,-65.4972201,1066.1326861569498,2.8706873076341637,0.16090279338202146,0.1294017835104884,7.035479223747264,16.50871835098909,23.364836067860395,0.7892984003475642,1.6366020474721443,0.0,0.0,0.0
Charata,Charata,Chaco,30968,-27.2178115,-61.1873712,861.3255313092857,2.4739045659587866,0.15237039071766417,0.12569540750651206,10.980986885427654,22.512217379333258,30.887506319993047,3.072433734425011,5.392039091593168,0.044343647788194836,0.0002341331257923768,0.0
Villa Regina,Villa Regina,Río Negro,30491,-39.0987435,-67.0852996,916.8997920854115,0.588884889161225,0.16548862368965228,0.028423182537747487,5.177424963426608,15.460502537394987,26.486095520630524,3.5931836199730753,6.920506291808025,0.1484311078856012,0.01295596922206146,0.0003463699403023864
Arrecifes,Arrecifes,Buenos Aires,30397,-34.0674983,-60.108738,165.35811884437794,2.860154032161846,0.19325213787704948,0.15306167508852048,7.5500578283431174,17.462154457218087,26.405348322066114,3.0249064692842094,5.3413291729882,0.042209549645494386,0.0003398531064841911,0.0
Saladillo,Saladillo,Buenos Aires,30378,-35.6388525,-59.7794241,166.67563845288552,2.806570306052294,0.20678998634244328,0.15486737157537092,6.765352663336434,16.37183351263975,25.75030217300168,2.965394000729925,5.221594279082135,0.035139874432608784,0.0006442553147859397,0.0
Dolores,Dolores,Buenos Aires,30372,-36.3153624,-57.6755399,200.70115133542092,2.700421192488364,0.21083343460288195,0.15863593100218829,6.956838329915449,15.85185119286946,24.7634593550817,3.213651212471464,5.800481646323549,0.07410974851079623,0.0037826843849207937,0.0001425790793236305
Apóstoles,Apóstoles,Misiones,30278,-27.9139657,-55.7549174,785.8547729252354,5.057603477001238,0.2382943172744797,0.21071254038442327,11.619274721380895,22.04237690444974,28.559491768003518,2.606430630175685,4.661262160301055,0.01679560141376855,0.00011879485365762254,0.0